{"ForSaleSEORenderQuery{\"zpid\":53854858}":{"property":{"id":"UHJvcGVydHk6NTM4NTQ4NTg=","streetAddress":"7416 N Seneca St","abbreviatedAddress":null,"city":"Portland","state":"OR","zipcode":"97203","address":{"neighborhood":"St.Johns","community":null,"subdivision":null,"unitPrefix":null,"unitNumber":null,"zipcode":"97203","city":"Portland","state":"OR","streetAddress":"7416 N Seneca St"},"isUndisclosedAddress":false,"boroughId":null,"providerListingID":null,"neighborhoodSearchUrl":{"path":"\/st.johns-portland-or\/"},"stateSearchUrl":{"path":"\/or\/"},"citySearchUrl":{"text":"Homes in Portland","path":"\/portland-or\/"},"zipcodeSearchUrl":{"path":"\/portland-or-97203\/"},"boroughSearchUrl":null,"communityUrl":null,"isPremierBuilder":false,"homeStatus":"FOR_SALE","listing_sub_type":{"is_FSBO":false,"is_FSBA":true,"is_newHome":false,"is_foreclosure":false,"is_bankOwned":false,"is_forAuction":false,"is_comingSoon":false},"zpid":53854858,"isZillowOwned":false,"hdpUrl":"\/homedetails\/7416-N-Seneca-St-Portland-OR-97203\/53854858_zpid\/","isNonOwnerOccupied":false,"building":null,"price":175000,"bedrooms":2,"bathrooms":1,"livingArea":1452,"homeType":"SINGLE_FAMILY","lotSize":4791,"latitude":45.593015,"longitude":-122.740427,"mediumImageLink":"https:\/\/photos.zillowstatic.com\/p_d\/IS2naalpbd56r71000000000.jpg","desktopWebHdpImageLink":"https:\/\/photos.zillowstatic.com\/p_h\/IS2naalpbd56r71000000000.jpg","photoCount":3,"small":[{"url":"https:\/\/photos.zillowstatic.com\/p_c\/IS2naalpbd56r71000000000.jpg","width":316},{"url":"https:\/\/photos.zillowstatic.com\/p_c\/ISirszpio1a39a1000000000.jpg","width":316},{"url":"https:\/\/photos.zillowstatic.com\/p_c\/ISalqn7ckt169a1000000000.jpg","width":316}],"description":"Super cute St. Johns Bungalow!  2 Bed, 1 bath home with charming front porch, large lot, and tucked away on a quiet street.  Classic touches like wood floors (under crpt), great layout and partial basement.  Updates include newer heat pump\/AC. This one is a fixer, just needs your vision and finishing touches!","homeTags":null,"dateSold":null,"rentZestimate":1695,"zestimate":295017,"festimate":265515,"hideZestimate":false,"isPreforeclosureAuction":false,"comingSoonOnMarketDate":null,"priceChange":null,"datePriceChanged":null,"brokerId":10787,"currency":"USD","contingentListingType":null,"nearbyCities":[{"regionUrl":{"path":"\/bridal-veil-or\/"},"name":"Bridal Veil","body":{"city":"Bridal Veil","state":"OR"}},{"regionUrl":{"path":"\/corbett-or\/"},"name":"Corbett","body":{"city":"Corbett","state":"OR"}},{"regionUrl":{"path":"\/fairview-or\/"},"name":"Fairview","body":{"city":"Fairview","state":"OR"}},{"regionUrl":{"path":"\/gresham-or\/"},"name":"Gresham","body":{"city":"Gresham","state":"OR"}},{"regionUrl":{"path":"\/maywood-park-or\/"},"name":"Maywood Park","body":{"city":"Maywood Park","state":"OR"}},{"regionUrl":{"path":"\/portland-or\/"},"name":"Portland","body":{"city":"Portland","state":"OR"}},{"regionUrl":{"path":"\/troutdale-or\/"},"name":"Troutdale","body":{"city":"Troutdale","state":"OR"}},{"regionUrl":{"path":"\/wood-village-or\/"},"name":"Wood Village","body":{"city":"Wood Village","state":"OR"}}],"nearbyNeighborhoods":[{"regionUrl":{"path":"\/brentwood-darlington-portland-or\/"},"name":"Brentwood-Darlington","body":{"neighborhood":"Brentwood-Darlington","city":"Portland","state":"OR"}},{"regionUrl":{"path":"\/centennial-portland-or\/"},"name":"Centennial","body":{"neighborhood":"Centennial","city":"Portland","state":"OR"}},{"regionUrl":{"path":"\/cully-portland-or\/"},"name":"Cully","body":{"neighborhood":"Cully","city":"Portland","state":"OR"}},{"regionUrl":{"path":"\/hazelwood-portland-or\/"},"name":"Hazelwood","body":{"neighborhood":"Hazelwood","city":"Portland","state":"OR"}},{"regionUrl":{"path":"\/lents-portland-or\/"},"name":"Lents","body":{"neighborhood":"Lents","city":"Portland","state":"OR"}},{"regionUrl":{"path":"\/montavilla-portland-or\/"},"name":"Montavilla","body":{"neighborhood":"Montavilla","city":"Portland","state":"OR"}},{"regionUrl":{"path":"\/northwest-portland-or\/"},"name":"Northwest","body":{"neighborhood":"Northwest","city":"Portland","state":"OR"}},{"regionUrl":{"path":"\/powellhurst-gilbert-portland-or\/"},"name":"Powellhurst Gilbert","body":{"neighborhood":"Powellhurst Gilbert","city":"Portland","state":"OR"}},{"regionUrl":{"path":"\/richmond-portland-or\/"},"name":"Richmond","body":{"neighborhood":"Richmond","city":"Portland","state":"OR"}},{"regionUrl":{"path":"\/st.johns-portland-or\/"},"name":"St.Johns","body":{"neighborhood":"St.Johns","city":"Portland","state":"OR"}}],"country":"USA","nearbyZipcodes":[{"regionUrl":{"path":"\/portland-or-97202\/"},"name":"97202","body":{"zipcode":"97202","city":"Portland","state":"OR"}},{"regionUrl":{"path":"\/portland-or-97206\/"},"name":"97206","body":{"zipcode":"97206","city":"Portland","state":"OR"}},{"regionUrl":{"path":"\/portland-or-97209\/"},"name":"97209","body":{"zipcode":"97209","city":"Portland","state":"OR"}},{"regionUrl":{"path":"\/portland-or-97217\/"},"name":"97217","body":{"zipcode":"97217","city":"Portland","state":"OR"}},{"regionUrl":{"path":"\/portland-or-97219\/"},"name":"97219","body":{"zipcode":"97219","city":"Portland","state":"OR"}},{"regionUrl":{"path":"\/portland-or-97222\/"},"name":"97222","body":{"zipcode":"97222","city":"Portland","state":"OR"}},{"regionUrl":{"path":"\/portland-or-97223\/"},"name":"97223","body":{"zipcode":"97223","city":"Portland","state":"OR"}},{"regionUrl":{"path":"\/portland-or-97224\/"},"name":"97224","body":{"zipcode":"97224","city":"Portland","state":"OR"}},{"regionUrl":{"path":"\/portland-or-97229\/"},"name":"97229","body":{"zipcode":"97229","city":"Portland","state":"OR"}},{"regionUrl":{"path":"\/portland-or-97230\/"},"name":"97230","body":{"zipcode":"97230","city":"Portland","state":"OR"}}],"apartmentsForRentInZipcodeSearchUrl":{"path":"\/portland-or-97203\/apartments\/"},"housesForRentInZipcodeSearchUrl":{"path":"\/portland-or-97203\/rent-houses\/"},"postingUrl":"http:\/\/www.johnlscott.com\/19534054","isPaidSingleFamilyBrokerId":false,"isPaidMultiFamilyBrokerId":false,"showDescriptionDisclaimer":false,"whatILove":null,"countyFIPS":"41051","parcelId":"1N1E06CC13000","homeFacts":{"aboveFactsAndFeaturesCategories":null,"atAGlanceFacts":[{"factLabel":"Type","factValue":"Single Family"},{"factLabel":"Year Built","factValue":"1909"},{"factLabel":"Heating","factValue":"Heat pump"},{"factLabel":"Cooling","factValue":"Central"},{"factLabel":"Parking","factValue":"No Data"},{"factLabel":"Lot","factValue":"4,791 sqft"},{"factLabel":"Days on Zillow","factValue":"4 Days"},{"factLabel":"Price\/sqft","factValue":"$121"},{"factLabel":"Saves","factValue":"96"}],"categoryDetails":[{"categoryGroupName":"Interior Features","categories":[{"categoryName":"Bedrooms","categoryFacts":[{"factLabel":"Beds","factValue":"2"}]},{"categoryName":"Heating and Cooling","categoryFacts":[{"factLabel":"Heating","factValue":"Heat pump"},{"factLabel":"Cooling","factValue":"Central"}]},{"categoryName":"Basement","categoryFacts":[{"factLabel":null,"factValue":"Unfinished basement"}]},{"categoryName":"Appliances","categoryFacts":[{"factLabel":"Appliances included","factValue":"Range \/ Oven, Refrigerator"}]},{"categoryName":"Flooring","categoryFacts":[{"factLabel":"Floor size","factValue":"1,452 sqft"},{"factLabel":"Flooring","factValue":"Carpet"}]}]},{"categoryGroupName":"Spaces and Amenities","categories":[{"categoryName":"Size","categoryFacts":[{"factLabel":"Unit count","factValue":"0"}]}]},{"categoryGroupName":"Construction","categories":[{"categoryName":"Type and Style","categoryFacts":[{"factLabel":"Structure type","factValue":"Bungalow"},{"factLabel":null,"factValue":"Single Family"}]},{"categoryName":"Materials","categoryFacts":[{"factLabel":"Roof type","factValue":"Composition"},{"factLabel":"Exterior material","factValue":"Wood"},{"factLabel":"Foundation type","factValue":"Concrete"}]},{"categoryName":"Dates","categoryFacts":[{"factLabel":"Last remodel year","factValue":"1909"},{"factLabel":null,"factValue":"Built in 1909"}]},{"categoryName":"Other Construction Features","categoryFacts":[{"factLabel":"Stories","factValue":"1"}]}]},{"categoryGroupName":"Exterior Features","categories":[{"categoryName":"Lot","categoryFacts":[{"factLabel":"Lot","factValue":"4,791 sqft"}]},{"categoryName":"Other Exterior Features","categoryFacts":[{"factLabel":"Parcel #","factValue":"1N1E06CC13000"}]}]},{"categoryGroupName":"Community and Neighborhood","categories":[{"categoryName":"Schools","categoryFacts":[{"factLabel":"Elementary school","factValue":"James John"},{"factLabel":"Middle school","factValue":"George"},{"factLabel":"High school","factValue":"Roosevelt"}]}]},{"categoryGroupName":"Sources","categories":[{"categoryName":"","categoryFacts":[{"factLabel":"MLS #","factValue":"19534054"}]}]},{"categoryGroupName":"Other","categories":[{"categoryName":"","categoryFacts":[{"factLabel":"Price\/sqft","factValue":"$121"}]}]},{"categoryGroupName":"Activity On Zillow","categories":[{"categoryName":"","categoryFacts":[{"factLabel":"Days on Zillow","factValue":"4"},{"factLabel":"Views since listing","factValue":"2,317"},{"factLabel":null,"factValue":"96 shoppers saved this home"}]}]}]},"schools":[{"distance":0.7,"name":"James John Elementary School","rating":2,"level":"Elementary","studentsPerTeacher":17,"assigned":null,"grades":"K-5","link":"\/portland-or\/schools\/james-john-elementary-school-74721\/","type":"Public","size":447,"totalCount":1,"isAssigned":true},{"distance":0.3,"name":"George Middle School","rating":3,"level":"Middle","studentsPerTeacher":14,"assigned":null,"grades":"6-8","link":"\/portland-or\/schools\/george-middle-school-74257\/","type":"Public","size":360,"totalCount":1,"isAssigned":true},{"distance":0.2,"name":"Pursuit Of Wellness Education At Roosevelt Campus","rating":null,"level":"High","studentsPerTeacher":14,"assigned":null,"grades":"9-12","link":"\/portland-or\/schools\/pursuit-of-wellness-education-at-roosevelt-campus-75220\/","type":"Public","size":252,"totalCount":1,"isAssigned":true}],"schoolSearchUrl":{"path":"\/portland-or\/schools\/"},"parentRegion":{"name":"St.Johns"},"thumb":[{"url":"https:\/\/photos.zillowstatic.com\/p_a\/IS2naalpbd56r71000000000.jpg"}],"nearbyHomes":[{"latitude":45.592971,"longitude":-122.740241,"daysOnZillow":6376,"homeStatus":"OTHER","photoCount":null,"zpid":53854857,"hdpUrl":"\/homedetails\/9335-N-Calhoun-Ave-Portland-OR-97203\/53854857_zpid\/","bedrooms":2,"bathrooms":1,"livingArea":980,"price":353340,"address":{"city":"Portland","state":"OR","zipcode":"97203","streetAddress":"9335 N Calhoun Ave"},"openHouseHours":null,"listing_sub_type":{"is_FSBO":false,"is_newHome":false,"is_foreclosure":false,"is_bankOwned":false,"is_forAuction":false,"is_comingSoon":false,"is_FSBA":false},"isNonOwnerOccupied":false,"photos":[{"width":316,"height":234,"url":"https:\/\/maps.googleapis.com\/maps\/api\/staticmap?center=45.592971,-122.740241&zoom=17&size=316x234&maptype=satellite&key=AIzaSyB27zV3MDy6oKhOscB5M44-CVmbisA-7zA&&signature=tGbxAgij5ArMqeJbx82BTExd4ns="}],"currency":"USD","googleStaticMapSignedUrl":"https:\/\/maps.googleapis.com\/maps\/api\/staticmap?center=45.592971,-122.740241&zoom=16&size=400x215&maptype=satellite&key=AIzaSyDY6ZJXL8FxBWwingKLmFPJdNF4VzD3vg4&scale=1&signature=rO4sejTA4nDD_tHYMvcz1jmrsG0=","googleStreetViewImageSignedUrl":"https:\/\/maps.googleapis.com\/maps\/api\/streetview?location=45.592971,-122.740241&size=400x215&key=AIzaSyDY6ZJXL8FxBWwingKLmFPJdNF4VzD3vg4&source=outdoor&signature=NAOOOK8kSblz9KlvXHtr4uVrmG0=","googleStreetViewMetadataSignedUrl":"https:\/\/maps.googleapis.com\/maps\/api\/streetview\/metadata?location=45.592971,-122.740241&key=AIzaSyDY6ZJXL8FxBWwingKLmFPJdNF4VzD3vg4&source=outdoor&signature=jCsNR5yTWLGhMOIXD1ABG3DU364=","isPremierBuilder":false,"state":"OR","isZillowOwned":false},{"latitude":45.592799,"longitude":-122.740432,"daysOnZillow":1784,"homeStatus":"OTHER","photoCount":null,"zpid":53854859,"hdpUrl":"\/homedetails\/9317-N-Calhoun-Ave-Portland-OR-97203\/53854859_zpid\/","bedrooms":2,"bathrooms":1,"livingArea":964,"price":354888,"address":{"city":"Portland","state":"OR","zipcode":"97203","streetAddress":"9317 N Calhoun Ave"},"openHouseHours":null,"listing_sub_type":{"is_FSBO":false,"is_newHome":false,"is_foreclosure":false,"is_bankOwned":false,"is_forAuction":false,"is_comingSoon":false,"is_FSBA":false},"isNonOwnerOccupied":false,"photos":[{"width":316,"height":234,"url":"https:\/\/maps.googleapis.com\/maps\/api\/staticmap?center=45.592799,-122.740432&zoom=17&size=316x234&maptype=satellite&key=AIzaSyB27zV3MDy6oKhOscB5M44-CVmbisA-7zA&&signature=FnHtWijjN1sRKC1t6oghQ7wCyEg="}],"currency":"USD","googleStaticMapSignedUrl":"https:\/\/maps.googleapis.com\/maps\/api\/staticmap?center=45.592799,-122.740432&zoom=16&size=400x215&maptype=satellite&key=AIzaSyDY6ZJXL8FxBWwingKLmFPJdNF4VzD3vg4&scale=1&signature=M56A9_j2H9azQN8LIr0-kpMCI7c=","googleStreetViewImageSignedUrl":"https:\/\/maps.googleapis.com\/maps\/api\/streetview?location=45.592799,-122.740432&size=400x215&key=AIzaSyDY6ZJXL8FxBWwingKLmFPJdNF4VzD3vg4&source=outdoor&signature=caBtBvM3EAc4OdK3EXRHYH9-C7E=","googleStreetViewMetadataSignedUrl":"https:\/\/maps.googleapis.com\/maps\/api\/streetview\/metadata?location=45.592799,-122.740432&key=AIzaSyDY6ZJXL8FxBWwingKLmFPJdNF4VzD3vg4&source=outdoor&signature=Nyp2nfQ3ApkTEB8wMQh9yAfBOtU=","isPremierBuilder":false,"state":"OR","isZillowOwned":false},{"latitude":45.593114,"longitude":-122.740688,"daysOnZillow":4317,"homeStatus":"OTHER","photoCount":null,"zpid":61809864,"hdpUrl":"\/homedetails\/9332-N-Buchanan-Ave-Portland-OR-97203\/61809864_zpid\/","bedrooms":3,"bathrooms":3,"livingArea":1535,"price":353001,"address":{"city":"Portland","state":"OR","zipcode":"97203","streetAddress":"9332 N Buchanan Ave"},"openHouseHours":null,"listing_sub_type":{"is_FSBO":false,"is_newHome":false,"is_foreclosure":false,"is_bankOwned":false,"is_forAuction":false,"is_comingSoon":false,"is_FSBA":false},"isNonOwnerOccupied":false,"photos":[{"width":316,"height":234,"url":"https:\/\/maps.googleapis.com\/maps\/api\/staticmap?center=45.593114,-122.740688&zoom=17&size=316x234&maptype=satellite&key=AIzaSyB27zV3MDy6oKhOscB5M44-CVmbisA-7zA&&signature=ZL1oDgpxOqjeNJpWvqcilUNZIvY="}],"currency":"USD","googleStaticMapSignedUrl":"https:\/\/maps.googleapis.com\/maps\/api\/staticmap?center=45.593114,-122.740688&zoom=16&size=400x215&maptype=satellite&key=AIzaSyDY6ZJXL8FxBWwingKLmFPJdNF4VzD3vg4&scale=1&signature=WwPFoHbxheBdvKoYhlE-C3Tpf7s=","googleStreetViewImageSignedUrl":"https:\/\/maps.googleapis.com\/maps\/api\/streetview?location=45.593114,-122.740688&size=400x215&key=AIzaSyDY6ZJXL8FxBWwingKLmFPJdNF4VzD3vg4&source=outdoor&signature=IyWNiJAB1ZgTTVje8vqblX2Aao0=","googleStreetViewMetadataSignedUrl":"https:\/\/maps.googleapis.com\/maps\/api\/streetview\/metadata?location=45.593114,-122.740688&key=AIzaSyDY6ZJXL8FxBWwingKLmFPJdNF4VzD3vg4&source=outdoor&signature=jgmA9qXQX7B12F47AM5Cvjms77w=","isPremierBuilder":false,"state":"OR","isZillowOwned":false},{"latitude":45.593178,"longitude":-122.740655,"daysOnZillow":5529,"homeStatus":"OTHER","photoCount":null,"zpid":53935605,"hdpUrl":"\/homedetails\/9336-N-Buchanan-Ave-Portland-OR-97203\/53935605_zpid\/","bedrooms":2,"bathrooms":2.5,"livingArea":1494,"price":350930,"address":{"city":"Portland","state":"OR","zipcode":"97203","streetAddress":"9336 N Buchanan Ave"},"openHouseHours":null,"listing_sub_type":{"is_FSBO":false,"is_newHome":false,"is_foreclosure":false,"is_bankOwned":false,"is_forAuction":false,"is_comingSoon":false,"is_FSBA":false},"isNonOwnerOccupied":false,"photos":[{"width":316,"height":234,"url":"https:\/\/maps.googleapis.com\/maps\/api\/staticmap?center=45.593178,-122.740655&zoom=17&size=316x234&maptype=satellite&key=AIzaSyB27zV3MDy6oKhOscB5M44-CVmbisA-7zA&&signature=R6VXB4ex2DYuKVRy7UYZ0NRKs2k="}],"currency":"USD","googleStaticMapSignedUrl":"https:\/\/maps.googleapis.com\/maps\/api\/staticmap?center=45.593178,-122.740655&zoom=16&size=400x215&maptype=satellite&key=AIzaSyDY6ZJXL8FxBWwingKLmFPJdNF4VzD3vg4&scale=1&signature=ve_2oqwlRtCC7aEaJmxe-l-OiBo=","googleStreetViewImageSignedUrl":"https:\/\/maps.googleapis.com\/maps\/api\/streetview?location=45.593178,-122.740655&size=400x215&key=AIzaSyDY6ZJXL8FxBWwingKLmFPJdNF4VzD3vg4&source=outdoor&signature=-fuOKE5VqOguSU3eLIuvNA5ITnI=","googleStreetViewMetadataSignedUrl":"https:\/\/maps.googleapis.com\/maps\/api\/streetview\/metadata?location=45.593178,-122.740655&key=AIzaSyDY6ZJXL8FxBWwingKLmFPJdNF4VzD3vg4&source=outdoor&signature=bMs2OskQ7DBT7m2G4CpacAduX9E=","isPremierBuilder":false,"state":"OR","isZillowOwned":false},{"latitude":45.593017,"longitude":-122.740737,"daysOnZillow":1953,"homeStatus":"OTHER","photoCount":23,"zpid":61809865,"hdpUrl":"\/homedetails\/9328-N-Buchanan-Ave-Portland-OR-97203\/61809865_zpid\/","bedrooms":4,"bathrooms":3,"livingArea":1896,"price":394683,"address":{"city":"Portland","state":"OR","zipcode":"97203","streetAddress":"9328 N Buchanan Ave"},"openHouseHours":null,"listing_sub_type":{"is_FSBO":false,"is_newHome":false,"is_foreclosure":false,"is_bankOwned":false,"is_forAuction":false,"is_comingSoon":false,"is_FSBA":false},"isNonOwnerOccupied":false,"photos":[{"width":316,"height":234,"url":"https:\/\/photos.zillowstatic.com\/p_c\/IS106z3bnui7f6r.jpg"}],"currency":"USD","googleStaticMapSignedUrl":"https:\/\/maps.googleapis.com\/maps\/api\/staticmap?center=45.593017,-122.740737&zoom=16&size=400x215&maptype=satellite&key=AIzaSyDY6ZJXL8FxBWwingKLmFPJdNF4VzD3vg4&scale=1&signature=vXi3i0IhZrEGASKwGPPpyMtFTcg=","googleStreetViewImageSignedUrl":"https:\/\/maps.googleapis.com\/maps\/api\/streetview?location=45.593017,-122.740737&size=400x215&key=AIzaSyDY6ZJXL8FxBWwingKLmFPJdNF4VzD3vg4&source=outdoor&signature=pzbz0Ms00JyE_X3Qss-LdOPJnpE=","googleStreetViewMetadataSignedUrl":"https:\/\/maps.googleapis.com\/maps\/api\/streetview\/metadata?location=45.593017,-122.740737&key=AIzaSyDY6ZJXL8FxBWwingKLmFPJdNF4VzD3vg4&source=outdoor&signature=yEHitsX7b-Y_qlTN1MjebaZalqg=","isPremierBuilder":false,"state":"OR","isZillowOwned":false},{"latitude":45.592702,"longitude":-122.740481,"daysOnZillow":1069,"homeStatus":"SOLD","photoCount":21,"zpid":53854860,"hdpUrl":"\/homedetails\/9311-N-Calhoun-Ave-Portland-OR-97203\/53854860_zpid\/","bedrooms":3,"bathrooms":3,"livingArea":1311,"price":325000,"address":{"city":"Portland","state":"OR","zipcode":"97203","streetAddress":"9311 N Calhoun Ave"},"openHouseHours":null,"listing_sub_type":{"is_FSBO":false,"is_newHome":false,"is_foreclosure":false,"is_bankOwned":false,"is_forAuction":false,"is_comingSoon":false,"is_FSBA":false},"isNonOwnerOccupied":false,"photos":[{"width":316,"height":234,"url":"https:\/\/photos.zillowstatic.com\/p_c\/IS5ey1pwizr94d0000000000.jpg"}],"currency":"USD","googleStaticMapSignedUrl":"https:\/\/maps.googleapis.com\/maps\/api\/staticmap?center=45.592702,-122.740481&zoom=16&size=400x215&maptype=satellite&key=AIzaSyDY6ZJXL8FxBWwingKLmFPJdNF4VzD3vg4&scale=1&signature=HpabIvKwZ4NogBcNp-lRUU3_Gyk=","googleStreetViewImageSignedUrl":"https:\/\/maps.googleapis.com\/maps\/api\/streetview?location=45.592702,-122.740481&size=400x215&key=AIzaSyDY6ZJXL8FxBWwingKLmFPJdNF4VzD3vg4&source=outdoor&signature=8EecpqpvWKNvilIseu7lOq7eHfo=","googleStreetViewMetadataSignedUrl":"https:\/\/maps.googleapis.com\/maps\/api\/streetview\/metadata?location=45.592702,-122.740481&key=AIzaSyDY6ZJXL8FxBWwingKLmFPJdNF4VzD3vg4&source=outdoor&signature=DQTV33f6e1J0zqrGZ5UZd4fSZkk=","isPremierBuilder":false,"state":"OR","isZillowOwned":false},{"latitude":45.592638,"longitude":-122.740514,"daysOnZillow":4673,"homeStatus":"OTHER","photoCount":null,"zpid":63192312,"hdpUrl":"\/homedetails\/9305-N-Calhoun-Ave-Portland-OR-97203\/63192312_zpid\/","bedrooms":null,"bathrooms":2.5,"livingArea":1311,"price":341662,"address":{"city":"Portland","state":"OR","zipcode":"97203","streetAddress":"9305 N Calhoun Ave"},"openHouseHours":null,"listing_sub_type":{"is_FSBO":false,"is_newHome":false,"is_foreclosure":false,"is_bankOwned":false,"is_forAuction":false,"is_comingSoon":false,"is_FSBA":false},"isNonOwnerOccupied":false,"photos":[{"width":316,"height":234,"url":"https:\/\/maps.googleapis.com\/maps\/api\/staticmap?center=45.592638,-122.740514&zoom=17&size=316x234&maptype=satellite&key=AIzaSyB27zV3MDy6oKhOscB5M44-CVmbisA-7zA&&signature=PNXIblx4BGPK_OCJ_eqDVLpkYKs="}],"currency":"USD","googleStaticMapSignedUrl":"https:\/\/maps.googleapis.com\/maps\/api\/staticmap?center=45.592638,-122.740514&zoom=16&size=400x215&maptype=satellite&key=AIzaSyDY6ZJXL8FxBWwingKLmFPJdNF4VzD3vg4&scale=1&signature=iHxcHwFdGklMg68feAswFhX9K28=","googleStreetViewImageSignedUrl":"https:\/\/maps.googleapis.com\/maps\/api\/streetview?location=45.592638,-122.740514&size=400x215&key=AIzaSyDY6ZJXL8FxBWwingKLmFPJdNF4VzD3vg4&source=outdoor&signature=v5GsoignXLcRH0UtZLMfG88jSyk=","googleStreetViewMetadataSignedUrl":"https:\/\/maps.googleapis.com\/maps\/api\/streetview\/metadata?location=45.592638,-122.740514&key=AIzaSyDY6ZJXL8FxBWwingKLmFPJdNF4VzD3vg4&source=outdoor&signature=gsWAFYWRDQTQkctdHGUhXqsnJkw=","isPremierBuilder":false,"state":"OR","isZillowOwned":false},{"latitude":45.592888,"longitude":-122.740802,"daysOnZillow":1925,"homeStatus":"OTHER","photoCount":null,"zpid":53935606,"hdpUrl":"\/homedetails\/9318-N-Buchanan-Ave-Portland-OR-97203\/53935606_zpid\/","bedrooms":3,"bathrooms":2,"livingArea":1774,"price":376247,"address":{"city":"Portland","state":"OR","zipcode":"97203","streetAddress":"9318 N Buchanan Ave"},"openHouseHours":null,"listing_sub_type":{"is_FSBO":false,"is_newHome":false,"is_foreclosure":false,"is_bankOwned":false,"is_forAuction":false,"is_comingSoon":false,"is_FSBA":false},"isNonOwnerOccupied":false,"photos":[{"width":316,"height":234,"url":"https:\/\/maps.googleapis.com\/maps\/api\/staticmap?center=45.592888,-122.740802&zoom=17&size=316x234&maptype=satellite&key=AIzaSyB27zV3MDy6oKhOscB5M44-CVmbisA-7zA&&signature=ILFSpT_TZyhQCqZNwMwsUul3TeA="}],"currency":"USD","googleStaticMapSignedUrl":"https:\/\/maps.googleapis.com\/maps\/api\/staticmap?center=45.592888,-122.740802&zoom=16&size=400x215&maptype=satellite&key=AIzaSyDY6ZJXL8FxBWwingKLmFPJdNF4VzD3vg4&scale=1&signature=2pY8TXu3-SFI3fs10XuxnygEV6c=","googleStreetViewImageSignedUrl":"https:\/\/maps.googleapis.com\/maps\/api\/streetview?location=45.592888,-122.740802&size=400x215&key=AIzaSyDY6ZJXL8FxBWwingKLmFPJdNF4VzD3vg4&source=outdoor&signature=S1qxuWC9JfiGfvV--o7FgpyUuZU=","googleStreetViewMetadataSignedUrl":"https:\/\/maps.googleapis.com\/maps\/api\/streetview\/metadata?location=45.592888,-122.740802&key=AIzaSyDY6ZJXL8FxBWwingKLmFPJdNF4VzD3vg4&source=outdoor&signature=uLJH-BREw6meGD7W7kwlD1gTYJk=","isPremierBuilder":false,"state":"OR","isZillowOwned":false},{"latitude":45.593431,"longitude":-122.740527,"daysOnZillow":4829,"homeStatus":"OTHER","photoCount":null,"zpid":53935604,"hdpUrl":"\/homedetails\/9410-N-Buchanan-Ave-Portland-OR-97203\/53935604_zpid\/","bedrooms":5,"bathrooms":3,"livingArea":3010,"price":482695,"address":{"city":"Portland","state":"OR","zipcode":"97203","streetAddress":"9410 N Buchanan Ave"},"openHouseHours":null,"listing_sub_type":{"is_FSBO":false,"is_newHome":false,"is_foreclosure":false,"is_bankOwned":false,"is_forAuction":false,"is_comingSoon":false,"is_FSBA":false},"isNonOwnerOccupied":false,"photos":[{"width":316,"height":234,"url":"https:\/\/maps.googleapis.com\/maps\/api\/staticmap?center=45.593431,-122.740527&zoom=17&size=316x234&maptype=satellite&key=AIzaSyB27zV3MDy6oKhOscB5M44-CVmbisA-7zA&&signature=GF8lY7NK5iWKqqBV8SE4_7QG4iY="}],"currency":"USD","googleStaticMapSignedUrl":"https:\/\/maps.googleapis.com\/maps\/api\/staticmap?center=45.593431,-122.740527&zoom=16&size=400x215&maptype=satellite&key=AIzaSyDY6ZJXL8FxBWwingKLmFPJdNF4VzD3vg4&scale=1&signature=1iTu5g3lvCipzWRsj9wUZ8fOTlg=","googleStreetViewImageSignedUrl":"https:\/\/maps.googleapis.com\/maps\/api\/streetview?location=45.593431,-122.740527&size=400x215&key=AIzaSyDY6ZJXL8FxBWwingKLmFPJdNF4VzD3vg4&source=outdoor&signature=mBaA0PdEI3V7IK-QloBEnLIsxDY=","googleStreetViewMetadataSignedUrl":"https:\/\/maps.googleapis.com\/maps\/api\/streetview\/metadata?location=45.593431,-122.740527&key=AIzaSyDY6ZJXL8FxBWwingKLmFPJdNF4VzD3vg4&source=outdoor&signature=750Z4WYIlMRlpEcaUUi0Ld8rJco=","isPremierBuilder":false,"state":"OR","isZillowOwned":false},{"latitude":45.593374,"longitude":-122.74014,"daysOnZillow":10245,"homeStatus":"OTHER","photoCount":null,"zpid":53854689,"hdpUrl":"\/homedetails\/9413-N-Calhoun-Ave-Portland-OR-97203\/53854689_zpid\/","bedrooms":2,"bathrooms":1,"livingArea":1562,"price":357262,"address":{"city":"Portland","state":"OR","zipcode":"97203","streetAddress":"9413 N Calhoun Ave"},"openHouseHours":null,"listing_sub_type":{"is_FSBO":false,"is_newHome":false,"is_foreclosure":false,"is_bankOwned":false,"is_forAuction":false,"is_comingSoon":false,"is_FSBA":false},"isNonOwnerOccupied":false,"photos":[{"width":316,"height":234,"url":"https:\/\/maps.googleapis.com\/maps\/api\/staticmap?center=45.593374,-122.740140&zoom=17&size=316x234&maptype=satellite&key=AIzaSyB27zV3MDy6oKhOscB5M44-CVmbisA-7zA&&signature=wJfnRfkehlXI-doEEKn6VU0HRMk="}],"currency":"USD","googleStaticMapSignedUrl":"https:\/\/maps.googleapis.com\/maps\/api\/staticmap?center=45.593374,-122.74014&zoom=16&size=400x215&maptype=satellite&key=AIzaSyDY6ZJXL8FxBWwingKLmFPJdNF4VzD3vg4&scale=1&signature=OQ4K7Qy_Z4s9e6-EY22Bi6DGLdM=","googleStreetViewImageSignedUrl":"https:\/\/maps.googleapis.com\/maps\/api\/streetview?location=45.593374,-122.74014&size=400x215&key=AIzaSyDY6ZJXL8FxBWwingKLmFPJdNF4VzD3vg4&source=outdoor&signature=AqjpMVqLRR8JV1mqXPEtZ1RZM0s=","googleStreetViewMetadataSignedUrl":"https:\/\/maps.googleapis.com\/maps\/api\/streetview\/metadata?location=45.593374,-122.74014&key=AIzaSyDY6ZJXL8FxBWwingKLmFPJdNF4VzD3vg4&source=outdoor&signature=GsG_l_z6lRuno3qhYNwI3Y_Zrcc=","isPremierBuilder":false,"state":"OR","isZillowOwned":false},{"latitude":45.592557,"longitude":-122.740555,"daysOnZillow":1652,"homeStatus":"OTHER","photoCount":null,"zpid":63192313,"hdpUrl":"\/homedetails\/9241-N-Calhoun-Ave-Portland-OR-97203\/63192313_zpid\/","bedrooms":3,"bathrooms":3,"livingArea":1326,"price":358162,"address":{"city":"Portland","state":"OR","zipcode":"97203","streetAddress":"9241 N Calhoun Ave"},"openHouseHours":null,"listing_sub_type":{"is_FSBO":false,"is_newHome":false,"is_foreclosure":false,"is_bankOwned":false,"is_forAuction":false,"is_comingSoon":false,"is_FSBA":false},"isNonOwnerOccupied":false,"photos":[{"width":316,"height":234,"url":"https:\/\/maps.googleapis.com\/maps\/api\/staticmap?center=45.592557,-122.740555&zoom=17&size=316x234&maptype=satellite&key=AIzaSyB27zV3MDy6oKhOscB5M44-CVmbisA-7zA&&signature=V1UW-2S6CkMFflPnferHNSrWlz0="}],"currency":"USD","googleStaticMapSignedUrl":"https:\/\/maps.googleapis.com\/maps\/api\/staticmap?center=45.592557,-122.740555&zoom=16&size=400x215&maptype=satellite&key=AIzaSyDY6ZJXL8FxBWwingKLmFPJdNF4VzD3vg4&scale=1&signature=WdKq_9vMiy5uHK1JoKIqm6KeiP8=","googleStreetViewImageSignedUrl":"https:\/\/maps.googleapis.com\/maps\/api\/streetview?location=45.592557,-122.740555&size=400x215&key=AIzaSyDY6ZJXL8FxBWwingKLmFPJdNF4VzD3vg4&source=outdoor&signature=As7eFw-dPIL3klRZzkfCjq21T0E=","googleStreetViewMetadataSignedUrl":"https:\/\/maps.googleapis.com\/maps\/api\/streetview\/metadata?location=45.592557,-122.740555&key=AIzaSyDY6ZJXL8FxBWwingKLmFPJdNF4VzD3vg4&source=outdoor&signature=nlKBQRO7NJLqk84oPkDNeYFdxag=","isPremierBuilder":false,"state":"OR","isZillowOwned":false},{"latitude":45.593569,"longitude":-122.740478,"daysOnZillow":null,"homeStatus":"OTHER","photoCount":10,"zpid":2093999824,"hdpUrl":"\/homedetails\/9420-N-Buchanan-Ave-9420-A-Portland-OR-97203\/2093999824_zpid\/","bedrooms":2,"bathrooms":1,"livingArea":836,"price":0,"address":{"city":"Portland","state":"OR","zipcode":"97203","streetAddress":"9420 N Buchanan Ave # 9420 A"},"openHouseHours":null,"listing_sub_type":{"is_FSBO":false,"is_newHome":false,"is_foreclosure":false,"is_bankOwned":false,"is_forAuction":false,"is_comingSoon":false,"is_FSBA":false},"isNonOwnerOccupied":true,"photos":[{"width":316,"height":234,"url":"https:\/\/photos.zillowstatic.com\/p_c\/ISmycbrbe6iz8h0000000000.jpg"}],"currency":"USD","googleStaticMapSignedUrl":"https:\/\/maps.googleapis.com\/maps\/api\/staticmap?center=45.593569,-122.740478&zoom=16&size=400x215&maptype=satellite&key=AIzaSyDY6ZJXL8FxBWwingKLmFPJdNF4VzD3vg4&scale=1&signature=K9htsD9vODqhnX04_cXBg2NbcWo=","googleStreetViewImageSignedUrl":"https:\/\/maps.googleapis.com\/maps\/api\/streetview?location=45.593569,-122.740478&size=400x215&key=AIzaSyDY6ZJXL8FxBWwingKLmFPJdNF4VzD3vg4&source=outdoor&signature=8Zr_-pU1TZalM3e9qDCYjEGi1WA=","googleStreetViewMetadataSignedUrl":"https:\/\/maps.googleapis.com\/maps\/api\/streetview\/metadata?location=45.593569,-122.740478&key=AIzaSyDY6ZJXL8FxBWwingKLmFPJdNF4VzD3vg4&source=outdoor&signature=VE90_TAKCmoR43tNMFL-nDuHgeo=","isPremierBuilder":false,"state":"OR","isZillowOwned":false},{"latitude":45.592651,"longitude":-122.739931,"daysOnZillow":1509,"homeStatus":"OTHER","photoCount":null,"zpid":53854842,"hdpUrl":"\/homedetails\/9316-N-Calhoun-Ave-Portland-OR-97203\/53854842_zpid\/","bedrooms":3,"bathrooms":2,"livingArea":2672,"price":448271,"address":{"city":"Portland","state":"OR","zipcode":"97203","streetAddress":"9316 N Calhoun Ave"},"openHouseHours":null,"listing_sub_type":{"is_FSBO":false,"is_newHome":false,"is_foreclosure":false,"is_bankOwned":false,"is_forAuction":false,"is_comingSoon":false,"is_FSBA":false},"isNonOwnerOccupied":false,"photos":[{"width":316,"height":234,"url":"https:\/\/maps.googleapis.com\/maps\/api\/staticmap?center=45.592651,-122.739931&zoom=17&size=316x234&maptype=satellite&key=AIzaSyB27zV3MDy6oKhOscB5M44-CVmbisA-7zA&&signature=YmqEM61pw1tbw6N3szEkKtp_Cio="}],"currency":"USD","googleStaticMapSignedUrl":"https:\/\/maps.googleapis.com\/maps\/api\/staticmap?center=45.592651,-122.739931&zoom=16&size=400x215&maptype=satellite&key=AIzaSyDY6ZJXL8FxBWwingKLmFPJdNF4VzD3vg4&scale=1&signature=zJ3pomtjbTM_bnYtiB1X9htFzV8=","googleStreetViewImageSignedUrl":"https:\/\/maps.googleapis.com\/maps\/api\/streetview?location=45.592651,-122.739931&size=400x215&key=AIzaSyDY6ZJXL8FxBWwingKLmFPJdNF4VzD3vg4&source=outdoor&signature=vtIlORU70YMqmu_qWrT8Uh0VOZE=","googleStreetViewMetadataSignedUrl":"https:\/\/maps.googleapis.com\/maps\/api\/streetview\/metadata?location=45.592651,-122.739931&key=AIzaSyDY6ZJXL8FxBWwingKLmFPJdNF4VzD3vg4&source=outdoor&signature=vNgSblWrpkYytaOrkyLFcpFd3ak=","isPremierBuilder":false,"state":"OR","isZillowOwned":false},{"latitude":45.592428,"longitude":-122.74062,"daysOnZillow":508,"homeStatus":"SOLD","photoCount":8,"zpid":53854861,"hdpUrl":"\/homedetails\/9239-N-Calhoun-Ave-Portland-OR-97203\/53854861_zpid\/","bedrooms":2,"bathrooms":1,"livingArea":855,"price":250000,"address":{"city":"Portland","state":"OR","zipcode":"97203","streetAddress":"9239 N Calhoun Ave"},"openHouseHours":null,"listing_sub_type":{"is_FSBO":false,"is_newHome":false,"is_foreclosure":false,"is_bankOwned":false,"is_forAuction":false,"is_comingSoon":false,"is_FSBA":false},"isNonOwnerOccupied":true,"photos":[{"width":316,"height":234,"url":"https:\/\/photos.zillowstatic.com\/p_c\/ISiji6iaq4zi241000000000.jpg"}],"currency":"USD","googleStaticMapSignedUrl":"https:\/\/maps.googleapis.com\/maps\/api\/staticmap?center=45.592428,-122.74062&zoom=16&size=400x215&maptype=satellite&key=AIzaSyDY6ZJXL8FxBWwingKLmFPJdNF4VzD3vg4&scale=1&signature=pSXSAvCp81PxnZIA3vMMU4lupZI=","googleStreetViewImageSignedUrl":"https:\/\/maps.googleapis.com\/maps\/api\/streetview?location=45.592428,-122.74062&size=400x215&key=AIzaSyDY6ZJXL8FxBWwingKLmFPJdNF4VzD3vg4&source=outdoor&signature=DqJsEVzDepWXcw9kPsxipoSExpo=","googleStreetViewMetadataSignedUrl":"https:\/\/maps.googleapis.com\/maps\/api\/streetview\/metadata?location=45.592428,-122.74062&key=AIzaSyDY6ZJXL8FxBWwingKLmFPJdNF4VzD3vg4&source=outdoor&signature=v1eFyES_ONtKGM7RpGnc_CMGxSY=","isPremierBuilder":false,"state":"OR","isZillowOwned":false},{"latitude":45.593535,"longitude":-122.740059,"daysOnZillow":2142,"homeStatus":"OTHER","photoCount":18,"zpid":53854688,"hdpUrl":"\/homedetails\/9421-N-Calhoun-Ave-Portland-OR-97203\/53854688_zpid\/","bedrooms":4,"bathrooms":1,"livingArea":1256,"price":357151,"address":{"city":"Portland","state":"OR","zipcode":"97203","streetAddress":"9421 N Calhoun Ave"},"openHouseHours":null,"listing_sub_type":{"is_FSBO":false,"is_newHome":false,"is_foreclosure":false,"is_bankOwned":false,"is_forAuction":false,"is_comingSoon":false,"is_FSBA":false},"isNonOwnerOccupied":true,"photos":[{"width":316,"height":234,"url":"https:\/\/photos.zillowstatic.com\/p_c\/ISa13wav0sgilt0000000000.jpg"}],"currency":"USD","googleStaticMapSignedUrl":"https:\/\/maps.googleapis.com\/maps\/api\/staticmap?center=45.593535,-122.740059&zoom=16&size=400x215&maptype=satellite&key=AIzaSyDY6ZJXL8FxBWwingKLmFPJdNF4VzD3vg4&scale=1&signature=Hb_mNhnl1kEOq2v-kPcfOBG7FZA=","googleStreetViewImageSignedUrl":"https:\/\/maps.googleapis.com\/maps\/api\/streetview?location=45.593535,-122.740059&size=400x215&key=AIzaSyDY6ZJXL8FxBWwingKLmFPJdNF4VzD3vg4&source=outdoor&signature=AyOlCti1xNcSnT2Ofj1acCNC7rQ=","googleStreetViewMetadataSignedUrl":"https:\/\/maps.googleapis.com\/maps\/api\/streetview\/metadata?location=45.593535,-122.740059&key=AIzaSyDY6ZJXL8FxBWwingKLmFPJdNF4VzD3vg4&source=outdoor&signature=axCQQeY33m_R6fKqFtLHLJpKjkc=","isPremierBuilder":false,"state":"OR","isZillowOwned":false}],"homeValues":{"region":{"shortName":"St.Johns","zindexSqFt":307,"zhvi":{"yoy":0.22497187851518563,"value":356400},"link":"\/stjohns-portland-or\/home-values\/"},"parentRegion":{"shortName":"Portland","zhvi":{"yoy":-0.2343566908835247,"value":425700},"regionTypeName":"city","buyerSellerIndex":null}},"isCurrentSignedInAgentResponsible":false,"isListingClaimedByCurrentSignedInUser":false,"highlights":{"user":null,"approved":[]},"comps":[{"homeTags":null,"description":"Three Bedroom Ranch with 2 Car Garage in Desirable Saint`s John Neighborhood. Laminate Floor & Carpet Floor Throughout. Bring your decorating ideas to make this home your own. Room to plant garden and enjoy summer.","latitude":45.592021,"longitude":-122.737477,"daysOnZillow":1,"homeStatus":"FOR_SALE","photoCount":9,"zpid":53854762,"hdpUrl":"\/homedetails\/7109-N-Sedro-St-Portland-OR-97203\/53854762_zpid\/","bedrooms":3,"bathrooms":1,"livingArea":960,"price":295000,"address":{"city":"Portland","state":"OR","zipcode":"97203","streetAddress":"7109 N Sedro St"},"listing_sub_type":{"is_FSBO":false,"is_newHome":false,"is_foreclosure":false,"is_bankOwned":false,"is_forAuction":false,"is_comingSoon":false,"is_FSBA":true},"isNonOwnerOccupied":true,"photos":[{"width":316,"height":234,"url":"https:\/\/photos.zillowstatic.com\/p_c\/IS2b1f16hnwfyq0000000000.jpg"}],"currency":"USD","googleStaticMapSignedUrl":"https:\/\/maps.googleapis.com\/maps\/api\/staticmap?center=45.592021,-122.737477&zoom=16&size=400x215&maptype=satellite&key=AIzaSyDY6ZJXL8FxBWwingKLmFPJdNF4VzD3vg4&scale=1&signature=wpguPtLgfAcMvbesPU9oBR0N-Qc=","googleStreetViewImageSignedUrl":"https:\/\/maps.googleapis.com\/maps\/api\/streetview?location=45.592021,-122.737477&size=400x215&key=AIzaSyDY6ZJXL8FxBWwingKLmFPJdNF4VzD3vg4&source=outdoor&signature=XVTOuwVQ3IkTHTTPdAnh032Juco=","googleStreetViewMetadataSignedUrl":"https:\/\/maps.googleapis.com\/maps\/api\/streetview\/metadata?location=45.592021,-122.737477&key=AIzaSyDY6ZJXL8FxBWwingKLmFPJdNF4VzD3vg4&source=outdoor&signature=D81IUTHDhz7RmbJgaJEO66xJ-xI=","isPremierBuilder":false,"state":"OR","isZillowOwned":false},{"homeTags":null,"description":"Remodeled Bungalow in St Johns close to parks, shops and restaurants. Beautifully refinished hardwoods throughout the main level. Spacious master suite on the upper level is light and bright w\/ newer carpet. Darling kitchen, remodeled in the last 5 years with SS appliances & looks onto the inviting back deck of the large, fenced backyard. Planters surround the front deck waiting for your green thumb. Ideally located and well-cared for.","latitude":45.595464,"longitude":-122.741694,"daysOnZillow":4,"homeStatus":"FOR_SALE","photoCount":25,"zpid":53992810,"hdpUrl":"\/homedetails\/9524-N-Polk-Ave-Portland-OR-97203\/53992810_zpid\/","bedrooms":3,"bathrooms":1,"livingArea":1064,"price":359900,"address":{"city":"Portland","state":"OR","zipcode":"97203","streetAddress":"9524 N Polk Ave"},"listing_sub_type":{"is_FSBO":false,"is_newHome":false,"is_foreclosure":false,"is_bankOwned":false,"is_forAuction":false,"is_comingSoon":false,"is_FSBA":true},"isNonOwnerOccupied":false,"photos":[{"width":316,"height":234,"url":"https:\/\/photos.zillowstatic.com\/p_c\/IS23b5ipecv8451000000000.jpg"}],"currency":"USD","googleStaticMapSignedUrl":"https:\/\/maps.googleapis.com\/maps\/api\/staticmap?center=45.595464,-122.741694&zoom=16&size=400x215&maptype=satellite&key=AIzaSyDY6ZJXL8FxBWwingKLmFPJdNF4VzD3vg4&scale=1&signature=-IZ7DdBaDGxxggtp2VOn8RrpVgQ=","googleStreetViewImageSignedUrl":"https:\/\/maps.googleapis.com\/maps\/api\/streetview?location=45.595464,-122.741694&size=400x215&key=AIzaSyDY6ZJXL8FxBWwingKLmFPJdNF4VzD3vg4&source=outdoor&signature=LPPEiyc-swqTf1MhnDtHonpkWF8=","googleStreetViewMetadataSignedUrl":"https:\/\/maps.googleapis.com\/maps\/api\/streetview\/metadata?location=45.595464,-122.741694&key=AIzaSyDY6ZJXL8FxBWwingKLmFPJdNF4VzD3vg4&source=outdoor&signature=JKD0kLDon3-f15s5HdDNrvcfr8A=","isPremierBuilder":false,"state":"OR","isZillowOwned":false},{"homeTags":null,"description":"This 935 square foot single family home has 3 bedrooms and 1.0 bathrooms. It is located at 9466 N Burr Ave Portland, Oregon.","latitude":45.593743,"longitude":-122.738211,"daysOnZillow":21,"homeStatus":"FOR_SALE","photoCount":17,"zpid":53854690,"hdpUrl":"\/homedetails\/9466-N-Burr-Ave-Portland-OR-97203\/53854690_zpid\/","bedrooms":3,"bathrooms":1,"livingArea":935,"price":349900,"address":{"city":"Portland","state":"OR","zipcode":"97203","streetAddress":"9466 N Burr Ave"},"listing_sub_type":{"is_FSBO":false,"is_newHome":false,"is_foreclosure":false,"is_bankOwned":false,"is_forAuction":false,"is_comingSoon":false,"is_FSBA":true},"isNonOwnerOccupied":false,"photos":[{"width":316,"height":234,"url":"https:\/\/photos.zillowstatic.com\/p_c\/IS2jnpu3zp1cy21000000000.jpg"}],"currency":"USD","googleStaticMapSignedUrl":"https:\/\/maps.googleapis.com\/maps\/api\/staticmap?center=45.593743,-122.738211&zoom=16&size=400x215&maptype=satellite&key=AIzaSyDY6ZJXL8FxBWwingKLmFPJdNF4VzD3vg4&scale=1&signature=L6mEJKWNChvMBLChuPXMzWaatIg=","googleStreetViewImageSignedUrl":"https:\/\/maps.googleapis.com\/maps\/api\/streetview?location=45.593743,-122.738211&size=400x215&key=AIzaSyDY6ZJXL8FxBWwingKLmFPJdNF4VzD3vg4&source=outdoor&signature=2SaoUEnmk8clM80CWYHFhDkJeKs=","googleStreetViewMetadataSignedUrl":"https:\/\/maps.googleapis.com\/maps\/api\/streetview\/metadata?location=45.593743,-122.738211&key=AIzaSyDY6ZJXL8FxBWwingKLmFPJdNF4VzD3vg4&source=outdoor&signature=mhlGYLsvxwJx1XtdM70Zr0BkG4U=","isPremierBuilder":false,"state":"OR","isZillowOwned":false},{"homeTags":["University Of Portland","Fenced Yard","St.Johns Neighborhood","Single Family"],"description":"2 bedroom 1 bathroom bungalow. Nice and cozy house with updated vinyl windows and a larger fenced yard. Original hardwood flooring underneath kitchen flooring and possibly throughout. Easy access to freeway and conveniently located to University of Portland. Come and see how you can make this place home. [Home Energy Score = 5. HES Report at https:\/\/rpt.greenbuildingregistry.com\/hes\/OR10063198-20181106]","latitude":45.598047,"longitude":-122.738823,"daysOnZillow":141,"homeStatus":"FOR_SALE","photoCount":13,"zpid":53919081,"hdpUrl":"\/homedetails\/7506-N-Columbia-Blvd-Portland-OR-97203\/53919081_zpid\/","bedrooms":3,"bathrooms":1,"livingArea":936,"price":290000,"address":{"city":"Portland","state":"OR","zipcode":"97203","streetAddress":"7506 N Columbia Blvd"},"listing_sub_type":{"is_FSBO":false,"is_newHome":false,"is_foreclosure":false,"is_bankOwned":false,"is_forAuction":false,"is_comingSoon":false,"is_FSBA":true},"isNonOwnerOccupied":false,"photos":[{"width":316,"height":234,"url":"https:\/\/photos.zillowstatic.com\/p_c\/IS6uioge8yu3ev0000000000.jpg"}],"currency":"USD","googleStaticMapSignedUrl":"https:\/\/maps.googleapis.com\/maps\/api\/staticmap?center=45.598047,-122.738823&zoom=16&size=400x215&maptype=satellite&key=AIzaSyDY6ZJXL8FxBWwingKLmFPJdNF4VzD3vg4&scale=1&signature=uuQAbCjIaaYjDlifREC0Nw1B25Y=","googleStreetViewImageSignedUrl":"https:\/\/maps.googleapis.com\/maps\/api\/streetview?location=45.598047,-122.738823&size=400x215&key=AIzaSyDY6ZJXL8FxBWwingKLmFPJdNF4VzD3vg4&source=outdoor&signature=yF5NN6IK3BMSo4ZhynhWQISRqEc=","googleStreetViewMetadataSignedUrl":"https:\/\/maps.googleapis.com\/maps\/api\/streetview\/metadata?location=45.598047,-122.738823&key=AIzaSyDY6ZJXL8FxBWwingKLmFPJdNF4VzD3vg4&source=outdoor&signature=QEg9a0CZuYzUVuy6sFx64d20PvU=","isPremierBuilder":false,"state":"OR","isZillowOwned":false},{"homeTags":["Rv Parking","Move In Ready","Large Fenced Yard","Beautifully Renovated"],"description":"Remodeled & move-in ready, this beautifully renovated 3bedroom bungalow offers large fenced yard!  RV Parking!  Other features include wood floors, earth tone colors, all new paint, new vinyl windows, lots of parking and paved back patio!  Includes a charming new kitchen w\/ custom cabinetry, SS appliances, new tile counters!Renovated bathroom! New electrical, roof, doors, windows, plumbing,the list goes on and on! Great location! [Home Energy Score = 2. HES Report at https:\/\/api.greenbuildingregistry.com\/report\/pdf\/R225885-20180508.pdf]","latitude":45.59798,"longitude":-122.739372,"daysOnZillow":337,"homeStatus":"FOR_SALE","photoCount":16,"zpid":53919082,"hdpUrl":"\/homedetails\/10224-N-Tioga-Ave-Portland-OR-97203\/53919082_zpid\/","bedrooms":3,"bathrooms":1,"livingArea":1054,"price":339900,"address":{"city":"Portland","state":"OR","zipcode":"97203","streetAddress":"10224 N Tioga Ave"},"listing_sub_type":{"is_FSBO":false,"is_newHome":false,"is_foreclosure":false,"is_bankOwned":false,"is_forAuction":false,"is_comingSoon":false,"is_FSBA":true},"isNonOwnerOccupied":true,"photos":[{"width":316,"height":234,"url":"https:\/\/photos.zillowstatic.com\/p_c\/ISaxfnhb9m1bse0000000000.jpg"}],"currency":"USD","googleStaticMapSignedUrl":"https:\/\/maps.googleapis.com\/maps\/api\/staticmap?center=45.59798,-122.739372&zoom=16&size=400x215&maptype=satellite&key=AIzaSyDY6ZJXL8FxBWwingKLmFPJdNF4VzD3vg4&scale=1&signature=hr_JYaPf-_oCWlE8RzCQ5ivNOxE=","googleStreetViewImageSignedUrl":"https:\/\/maps.googleapis.com\/maps\/api\/streetview?location=45.59798,-122.739372&size=400x215&key=AIzaSyDY6ZJXL8FxBWwingKLmFPJdNF4VzD3vg4&source=outdoor&signature=ku-gV0gxQlpt_mnPos_YoLCg3ls=","googleStreetViewMetadataSignedUrl":"https:\/\/maps.googleapis.com\/maps\/api\/streetview\/metadata?location=45.59798,-122.739372&key=AIzaSyDY6ZJXL8FxBWwingKLmFPJdNF4VzD3vg4&source=outdoor&signature=MMQ2L61EXiX1j0PjZ2FpMyKUP8A=","isPremierBuilder":false,"state":"OR","isZillowOwned":false},{"homeTags":null,"description":"BACK ON THE MARKET! Owners withdrew listing in order to spend holidays with family. OPEN HOUSE Sat\/Sun 3\/9 and 3\/10 11-2. OWNED solar panels make your monthly bills for electric AND gas an average of only $35!! HOME ENERGY SCORE OF 8!  This gem is located near trendy downtown St. Johns shops, restaurants and parks. Rain shower, jetted tub, stainless appliances, newer furnace. This is a MUST SEE for the area!","latitude":45.596411,"longitude":-122.742892,"daysOnZillow":12,"homeStatus":"FOR_SALE","photoCount":26,"zpid":53923050,"hdpUrl":"\/homedetails\/9561-N-Tyler-Ave-Portland-OR-97203\/53923050_zpid\/","bedrooms":3,"bathrooms":2,"livingArea":1407,"price":380000,"address":{"city":"Portland","state":"OR","zipcode":"97203","streetAddress":"9561 N Tyler Ave"},"listing_sub_type":{"is_FSBO":false,"is_newHome":false,"is_foreclosure":false,"is_bankOwned":false,"is_forAuction":false,"is_comingSoon":false,"is_FSBA":true},"isNonOwnerOccupied":false,"photos":[{"width":316,"height":234,"url":"https:\/\/photos.zillowstatic.com\/p_c\/ISuwcww528z9it1000000000.jpg"}],"currency":"USD","googleStaticMapSignedUrl":"https:\/\/maps.googleapis.com\/maps\/api\/staticmap?center=45.596411,-122.742892&zoom=16&size=400x215&maptype=satellite&key=AIzaSyDY6ZJXL8FxBWwingKLmFPJdNF4VzD3vg4&scale=1&signature=lK5SAHrBtSmi7YyUCenaYlWfT3M=","googleStreetViewImageSignedUrl":"https:\/\/maps.googleapis.com\/maps\/api\/streetview?location=45.596411,-122.742892&size=400x215&key=AIzaSyDY6ZJXL8FxBWwingKLmFPJdNF4VzD3vg4&source=outdoor&signature=fNvi4khqYev6SNVhDMI5kq9n10g=","googleStreetViewMetadataSignedUrl":"https:\/\/maps.googleapis.com\/maps\/api\/streetview\/metadata?location=45.596411,-122.742892&key=AIzaSyDY6ZJXL8FxBWwingKLmFPJdNF4VzD3vg4&source=outdoor&signature=aqkRPSfNx4z_nwNEglsP72xO3IE=","isPremierBuilder":false,"state":"OR","isZillowOwned":false},{"homeTags":["Finished Basement","Beautifully Renovated","Excellent Location","Walk To Downtown"],"description":"Beautifully renovated charming old St Johns. Excellent location, walk to downtown. Large corner lot with a big backyard with possible development potential. Finished basement also has ADU potential. Move right in with plenty of future potential. So many possibilities with this home. Listing agent has partial owner interest. OPEN HOUSE Sunday 3\/10\/19 1-4pm.","latitude":45.589633,"longitude":-122.745927,"daysOnZillow":43,"homeStatus":"FOR_SALE","photoCount":23,"zpid":53858798,"hdpUrl":"\/homedetails\/8002-N-Tyler-Ave-Portland-OR-97203\/53858798_zpid\/","bedrooms":3,"bathrooms":1,"livingArea":1616,"price":379000,"address":{"city":"Portland","state":"OR","zipcode":"97203","streetAddress":"8002 N Tyler Ave"},"listing_sub_type":{"is_FSBO":false,"is_newHome":false,"is_foreclosure":false,"is_bankOwned":false,"is_forAuction":false,"is_comingSoon":false,"is_FSBA":true},"isNonOwnerOccupied":true,"photos":[{"width":316,"height":234,"url":"https:\/\/photos.zillowstatic.com\/p_c\/IS621wgowxnadm1000000000.jpg"}],"currency":"USD","googleStaticMapSignedUrl":"https:\/\/maps.googleapis.com\/maps\/api\/staticmap?center=45.589633,-122.745927&zoom=16&size=400x215&maptype=satellite&key=AIzaSyDY6ZJXL8FxBWwingKLmFPJdNF4VzD3vg4&scale=1&signature=sZXl1f2KzmCpFXWbf7HZQH7DuuM=","googleStreetViewImageSignedUrl":"https:\/\/maps.googleapis.com\/maps\/api\/streetview?location=45.589633,-122.745927&size=400x215&key=AIzaSyDY6ZJXL8FxBWwingKLmFPJdNF4VzD3vg4&source=outdoor&signature=0w-f6_Z-swkapsdw5QeM3pIPEdM=","googleStreetViewMetadataSignedUrl":"https:\/\/maps.googleapis.com\/maps\/api\/streetview\/metadata?location=45.589633,-122.745927&key=AIzaSyDY6ZJXL8FxBWwingKLmFPJdNF4VzD3vg4&source=outdoor&signature=hN0PKYKS6qmIR7BG27sP6a2hDYI=","isPremierBuilder":false,"state":"OR","isZillowOwned":false},{"homeTags":["St.Johns Neighborhood","Single Family","Built in 2001"],"description":"Alert! This property has a newly disclosed reserve price of $275,560 for purchase. Visit the Auction.com property page to learn more.  Investor opportunity! This property was recently foreclosed by a bank or financial institution and is now available to purchase online at Auction.com ending 03-19-2019. Visit Auction.com now to view additional photos, Property Inspection Report with title information, plat maps and interior inspection reports when available. Auction.com is the nation's leading real estate transaction platform focused exclusively on the sale of residential foreclosure and bank-owned properties. Don't miss this special opportunity to buy homes at wholesale prices!  In our online auctions and live Foreclosure Sales, Auction.com currently has 40 properties scheduled for sale in Multnomah County and 237 throughout Oregon. All properties and sale details can be found with a simple search at Auction.com. Create a FREE account today to find more properties like this one, save searches of properties that meet your investment criteria and have the properties you're looking for emailed directly to you when posted in an upcoming sale event. To view the complete details of this exact property, click the Auction.com link below or paste the Property ID 2470531 into the search bar at Auction.com","latitude":45.591828,"longitude":-122.733515,"daysOnZillow":157,"homeStatus":"FOR_SALE","photoCount":2,"zpid":68350825,"hdpUrl":"\/homedetails\/6809-N-Seneca-St-Portland-OR-97203\/68350825_zpid\/","bedrooms":3,"bathrooms":2.5,"livingArea":1502,"price":275560,"address":{"city":"Portland","state":"OR","zipcode":"97203","streetAddress":"6809 N Seneca St"},"listing_sub_type":{"is_FSBO":false,"is_newHome":false,"is_foreclosure":true,"is_bankOwned":true,"is_forAuction":true,"is_comingSoon":false,"is_FSBA":true},"isNonOwnerOccupied":true,"photos":[{"width":316,"height":234,"url":"https:\/\/photos.zillowstatic.com\/p_c\/ISesumos368zcb0000000000.jpg"}],"currency":"USD","googleStaticMapSignedUrl":"https:\/\/maps.googleapis.com\/maps\/api\/staticmap?center=45.591828,-122.733515&zoom=16&size=400x215&maptype=satellite&key=AIzaSyDY6ZJXL8FxBWwingKLmFPJdNF4VzD3vg4&scale=1&signature=0eQQ-a3e-m2hBOBk2PvH4SMonAE=","googleStreetViewImageSignedUrl":"https:\/\/maps.googleapis.com\/maps\/api\/streetview?location=45.591828,-122.733515&size=400x215&key=AIzaSyDY6ZJXL8FxBWwingKLmFPJdNF4VzD3vg4&source=outdoor&signature=QogclBJaP74QrSV8Mk9UzsNExIc=","googleStreetViewMetadataSignedUrl":"https:\/\/maps.googleapis.com\/maps\/api\/streetview\/metadata?location=45.591828,-122.733515&key=AIzaSyDY6ZJXL8FxBWwingKLmFPJdNF4VzD3vg4&source=outdoor&signature=tiVaewLAGLZVFBbDDKw-qEqpdWg=","isPremierBuilder":false,"state":"OR","isZillowOwned":false},{"homeTags":null,"description":"Steps to St Johns! Live your best life, eating at carts and watching movies at the pub. Adorable bungalow with every system rebuilt makes it easy to not worry about weekend projects. 3 beds & 2 full baths make this house live much larger than its square footage. Shed for your toys, what else could you want?! See it now. [Home Energy Score = 8. HES Report at https:\/\/rpt.greenbuildingregistry.com\/hes\/OR10110871]","latitude":45.592137,"longitude":-122.747508,"daysOnZillow":18,"homeStatus":"FOR_SALE","photoCount":19,"zpid":53935266,"hdpUrl":"\/homedetails\/8025-N-Hudson-St-Portland-OR-97203\/53935266_zpid\/","bedrooms":3,"bathrooms":2,"livingArea":902,"price":350000,"address":{"city":"Portland","state":"OR","zipcode":"97203","streetAddress":"8025 N Hudson St"},"listing_sub_type":{"is_FSBO":false,"is_newHome":false,"is_foreclosure":false,"is_bankOwned":false,"is_forAuction":false,"is_comingSoon":false,"is_FSBA":true},"isNonOwnerOccupied":false,"photos":[{"width":316,"height":234,"url":"https:\/\/photos.zillowstatic.com\/p_c\/IS2b1ryf8do9ed0000000000.jpg"}],"currency":"USD","googleStaticMapSignedUrl":"https:\/\/maps.googleapis.com\/maps\/api\/staticmap?center=45.592137,-122.747508&zoom=16&size=400x215&maptype=satellite&key=AIzaSyDY6ZJXL8FxBWwingKLmFPJdNF4VzD3vg4&scale=1&signature=Qu-m6Z9CG07i8GgI4SfTjpk83Pk=","googleStreetViewImageSignedUrl":"https:\/\/maps.googleapis.com\/maps\/api\/streetview?location=45.592137,-122.747508&size=400x215&key=AIzaSyDY6ZJXL8FxBWwingKLmFPJdNF4VzD3vg4&source=outdoor&signature=vgSxmyoKaW0W28Ov5_Vw_1dOXWA=","googleStreetViewMetadataSignedUrl":"https:\/\/maps.googleapis.com\/maps\/api\/streetview\/metadata?location=45.592137,-122.747508&key=AIzaSyDY6ZJXL8FxBWwingKLmFPJdNF4VzD3vg4&source=outdoor&signature=lRR9upcAJIpllRLmI5WHq_vEYxw=","isPremierBuilder":false,"state":"OR","isZillowOwned":false},{"homeTags":null,"description":"New roof 2017 and Central AC 2016, Detached garage with alley access, upgraded vanities and lighting in upstairs bathrooms, quartz counter tops, vaulted ceilings, skylights, Large open kitchen\/dining area with door to back yard and patio,75 walk and 85 bike scores.  Enjoy St Johns shops, restaurants, etc., easy access to freeways and public transportation. [Home Energy Score = 8. HES Report at https:\/\/rpt.greenbuildingregistry.com\/hes\/OR10056177]","latitude":45.594015,"longitude":-122.732905,"daysOnZillow":12,"homeStatus":"FOR_SALE","photoCount":20,"zpid":53854643,"hdpUrl":"\/homedetails\/6823-N-Powers-St-Portland-OR-97203\/53854643_zpid\/","bedrooms":3,"bathrooms":3,"livingArea":1418,"price":324900,"address":{"city":"Portland","state":"OR","zipcode":"97203","streetAddress":"6823 N Powers St"},"listing_sub_type":{"is_FSBO":false,"is_newHome":false,"is_foreclosure":false,"is_bankOwned":false,"is_forAuction":false,"is_comingSoon":false,"is_FSBA":true},"isNonOwnerOccupied":true,"photos":[{"width":316,"height":234,"url":"https:\/\/photos.zillowstatic.com\/p_c\/ISugs5uwkn55lr1000000000.jpg"}],"currency":"USD","googleStaticMapSignedUrl":"https:\/\/maps.googleapis.com\/maps\/api\/staticmap?center=45.594015,-122.732905&zoom=16&size=400x215&maptype=satellite&key=AIzaSyDY6ZJXL8FxBWwingKLmFPJdNF4VzD3vg4&scale=1&signature=OweV7BlrWT_jVASnqeKr78NRlNU=","googleStreetViewImageSignedUrl":"https:\/\/maps.googleapis.com\/maps\/api\/streetview?location=45.594015,-122.732905&size=400x215&key=AIzaSyDY6ZJXL8FxBWwingKLmFPJdNF4VzD3vg4&source=outdoor&signature=kMYHfID0fYy-Z_TgSiAClEiPnzs=","googleStreetViewMetadataSignedUrl":"https:\/\/maps.googleapis.com\/maps\/api\/streetview\/metadata?location=45.594015,-122.732905&key=AIzaSyDY6ZJXL8FxBWwingKLmFPJdNF4VzD3vg4&source=outdoor&signature=1mzcdtWmSbtVqzh032JIysRhwFU=","isPremierBuilder":false,"state":"OR","isZillowOwned":false},{"homeTags":null,"description":"Charming St. Johns daylight ranch.  More than meets the eye! Inviting main flr w\/ hrdwds, cozy FP, 3 bedrms & spacious kitch. Daylight bsmt w\/ loads of natural light that opens to bckyrd, lrg fam rm, 2nd FP, lndry rm, wrkshp, 4th bdrm (non-conform). NEW: hi-eff gas furn, swr line to strt, elct panel, paint (in\/out) & newer roof\/wndws. Fully fencd yrd w\/ patio & lush lawn. Wlkng dist to schools, shops, cafes, St.Johns Village. Must see!! [Home Energy Score = 7. HES Report at https:\/\/rpt.greenbuildingregistry.com\/hes\/OR10074603]","latitude":45.590106,"longitude":-122.735856,"daysOnZillow":18,"homeStatus":"FOR_SALE","photoCount":27,"zpid":53945813,"hdpUrl":"\/homedetails\/6855-N-Rochester-St-Portland-OR-97203\/53945813_zpid\/","bedrooms":4,"bathrooms":1,"livingArea":2016,"price":439900,"address":{"city":"Portland","state":"OR","zipcode":"97203","streetAddress":"6855 N Rochester St"},"listing_sub_type":{"is_FSBO":false,"is_newHome":false,"is_foreclosure":false,"is_bankOwned":false,"is_forAuction":false,"is_comingSoon":false,"is_FSBA":true},"isNonOwnerOccupied":false,"photos":[{"width":316,"height":234,"url":"https:\/\/photos.zillowstatic.com\/p_c\/ISyrvudxju8xpe0000000000.jpg"}],"currency":"USD","googleStaticMapSignedUrl":"https:\/\/maps.googleapis.com\/maps\/api\/staticmap?center=45.590106,-122.735856&zoom=16&size=400x215&maptype=satellite&key=AIzaSyDY6ZJXL8FxBWwingKLmFPJdNF4VzD3vg4&scale=1&signature=PMcW--1NZKRY_oq1_zFXXEfmfIY=","googleStreetViewImageSignedUrl":"https:\/\/maps.googleapis.com\/maps\/api\/streetview?location=45.590106,-122.735856&size=400x215&key=AIzaSyDY6ZJXL8FxBWwingKLmFPJdNF4VzD3vg4&source=outdoor&signature=q1jfumsKe6ZURFHSMDGOIIwc-Ng=","googleStreetViewMetadataSignedUrl":"https:\/\/maps.googleapis.com\/maps\/api\/streetview\/metadata?location=45.590106,-122.735856&key=AIzaSyDY6ZJXL8FxBWwingKLmFPJdNF4VzD3vg4&source=outdoor&signature=3j_V6D-9gArgRGWhPECcI7DCN6A=","isPremierBuilder":false,"state":"OR","isZillowOwned":false},{"homeTags":["Fully Fenced Yard","Remodeled Kitchen","Wood Floor","St.Johns Neighborhood"],"description":"Great opportunity to clean up and rehab this home and property! Potential for division - buyer to verify all uses. Remodeled kitchen, wood floors in all bedrooms & living room (some covered by carpet) Trex deck, carport, tool sheds and fully fenced yard.","latitude":45.598972,"longitude":-122.745718,"daysOnZillow":110,"homeStatus":"FOR_SALE","photoCount":4,"zpid":53921754,"hdpUrl":"\/homedetails\/8201-N-Swenson-St-Portland-OR-97203\/53921754_zpid\/","bedrooms":3,"bathrooms":1,"livingArea":952,"price":335000,"address":{"city":"Portland","state":"OR","zipcode":"97203","streetAddress":"8201 N Swenson St"},"listing_sub_type":{"is_FSBO":false,"is_newHome":false,"is_foreclosure":false,"is_bankOwned":false,"is_forAuction":false,"is_comingSoon":false,"is_FSBA":true},"isNonOwnerOccupied":false,"photos":[{"width":316,"height":234,"url":"https:\/\/photos.zillowstatic.com\/p_c\/ISeseufqonoxea1000000000.jpg"}],"currency":"USD","googleStaticMapSignedUrl":"https:\/\/maps.googleapis.com\/maps\/api\/staticmap?center=45.598972,-122.745718&zoom=16&size=400x215&maptype=satellite&key=AIzaSyDY6ZJXL8FxBWwingKLmFPJdNF4VzD3vg4&scale=1&signature=CwMHUFD3j4RdHFmjk4hIMq8G76Q=","googleStreetViewImageSignedUrl":"https:\/\/maps.googleapis.com\/maps\/api\/streetview?location=45.598972,-122.745718&size=400x215&key=AIzaSyDY6ZJXL8FxBWwingKLmFPJdNF4VzD3vg4&source=outdoor&signature=mlleXjnf2b4kt67JZvwkMyucKuw=","googleStreetViewMetadataSignedUrl":"https:\/\/maps.googleapis.com\/maps\/api\/streetview\/metadata?location=45.598972,-122.745718&key=AIzaSyDY6ZJXL8FxBWwingKLmFPJdNF4VzD3vg4&source=outdoor&signature=t0n9CbaOYtv_H3nfNVwf3lSFVHc=","isPremierBuilder":false,"state":"OR","isZillowOwned":false},{"homeTags":["St.Johns Neighborhood","Single Family","One Story House"],"description":"This 884 square foot single family home has 3 bedrooms and 2.0 bathrooms. It is located at 6645 N Powers St Portland, Oregon.","latitude":45.594017,"longitude":-122.731408,"daysOnZillow":37,"homeStatus":"FOR_SALE","photoCount":4,"zpid":53854325,"hdpUrl":"\/homedetails\/6645-N-Powers-St-Portland-OR-97203\/53854325_zpid\/","bedrooms":3,"bathrooms":2,"livingArea":884,"price":285000,"address":{"city":"Portland","state":"OR","zipcode":"97203","streetAddress":"6645 N Powers St"},"listing_sub_type":{"is_FSBO":false,"is_newHome":false,"is_foreclosure":false,"is_bankOwned":false,"is_forAuction":false,"is_comingSoon":false,"is_FSBA":true},"isNonOwnerOccupied":true,"photos":[{"width":316,"height":234,"url":"https:\/\/photos.zillowstatic.com\/p_c\/IS2f09j0mpnlno0000000000.jpg"}],"currency":"USD","googleStaticMapSignedUrl":"https:\/\/maps.googleapis.com\/maps\/api\/staticmap?center=45.594017,-122.731408&zoom=16&size=400x215&maptype=satellite&key=AIzaSyDY6ZJXL8FxBWwingKLmFPJdNF4VzD3vg4&scale=1&signature=6w3n4onq3UI1RqyMhyfq9Nl5dGU=","googleStreetViewImageSignedUrl":"https:\/\/maps.googleapis.com\/maps\/api\/streetview?location=45.594017,-122.731408&size=400x215&key=AIzaSyDY6ZJXL8FxBWwingKLmFPJdNF4VzD3vg4&source=outdoor&signature=UiT7e8LVY0R10r4d1TnfFl627lI=","googleStreetViewMetadataSignedUrl":"https:\/\/maps.googleapis.com\/maps\/api\/streetview\/metadata?location=45.594017,-122.731408&key=AIzaSyDY6ZJXL8FxBWwingKLmFPJdNF4VzD3vg4&source=outdoor&signature=ucAEqKorVgf9ZwHkf6IKx4u3Qzs=","isPremierBuilder":false,"state":"OR","isZillowOwned":false},{"homeTags":null,"description":"This 2220 square foot single family home has 3 bedrooms and 3.0 bathrooms. It is located at 9113 N Buchanan Ave Portland, Oregon.","latitude":45.591533,"longitude":-122.742155,"daysOnZillow":7,"homeStatus":"FOR_SALE","photoCount":32,"zpid":119111834,"hdpUrl":"\/homedetails\/9113-N-Buchanan-Ave-Portland-OR-97203\/119111834_zpid\/","bedrooms":3,"bathrooms":3,"livingArea":2220,"price":579500,"address":{"city":"Portland","state":"OR","zipcode":"97203","streetAddress":"9113 N Buchanan Ave"},"listing_sub_type":{"is_FSBO":false,"is_newHome":false,"is_foreclosure":false,"is_bankOwned":false,"is_forAuction":false,"is_comingSoon":false,"is_FSBA":true},"isNonOwnerOccupied":false,"photos":[{"width":316,"height":234,"url":"https:\/\/photos.zillowstatic.com\/p_c\/ISy705p110ufr80000000000.jpg"}],"currency":"USD","googleStaticMapSignedUrl":"https:\/\/maps.googleapis.com\/maps\/api\/staticmap?center=45.591533,-122.742155&zoom=16&size=400x215&maptype=satellite&key=AIzaSyDY6ZJXL8FxBWwingKLmFPJdNF4VzD3vg4&scale=1&signature=cgs1AaTYUK2z9DfpPtKwgsrvfJI=","googleStreetViewImageSignedUrl":"https:\/\/maps.googleapis.com\/maps\/api\/streetview?location=45.591533,-122.742155&size=400x215&key=AIzaSyDY6ZJXL8FxBWwingKLmFPJdNF4VzD3vg4&source=outdoor&signature=UFib1NyK2SGuN1Dbq8W4fGtR4oM=","googleStreetViewMetadataSignedUrl":"https:\/\/maps.googleapis.com\/maps\/api\/streetview\/metadata?location=45.591533,-122.742155&key=AIzaSyDY6ZJXL8FxBWwingKLmFPJdNF4VzD3vg4&source=outdoor&signature=Ymr6KYy1qLpSFYfkzU8knc6IL8A=","isPremierBuilder":false,"state":"OR","isZillowOwned":false},{"homeTags":["Fenced Yard","Gas Fireplace","St.Johns Neighborhood","Single Family"],"description":"ST. JOHNS CAPECOD WITH NEW KITCHEN, NEW BATH, FRESH PAINT INTERIOR AND EXTERIOR, GLEAMING REFINISHED HARDWOOD FLOORS.  VINYL WINDOWS, FENCED YARD.  DARLING UNFINISHED ATTIC, GREAT FOR MORE STORAGE OR USE YOUR IMAGINATION.  GAS AVAILABLE IN LIVING ROOM FOR POSSIBLE GAS FIREPLACE? TRULY A WONDERFUL HOME!","latitude":45.595829,"longitude":-122.751088,"daysOnZillow":175,"homeStatus":"FOR_SALE","photoCount":17,"zpid":53940300,"hdpUrl":"\/homedetails\/9416-N-Saint-Louis-Ave-Portland-OR-97203\/53940300_zpid\/","bedrooms":2,"bathrooms":1,"livingArea":838,"price":328950,"address":{"city":"Portland","state":"OR","zipcode":"97203","streetAddress":"9416 N Saint Louis Ave"},"listing_sub_type":{"is_FSBO":false,"is_newHome":false,"is_foreclosure":false,"is_bankOwned":false,"is_forAuction":false,"is_comingSoon":false,"is_FSBA":true},"isNonOwnerOccupied":false,"photos":[{"width":316,"height":234,"url":"https:\/\/photos.zillowstatic.com\/p_c\/IS6a7mfc1ud84k0000000000.jpg"}],"currency":"USD","googleStaticMapSignedUrl":"https:\/\/maps.googleapis.com\/maps\/api\/staticmap?center=45.595829,-122.751088&zoom=16&size=400x215&maptype=satellite&key=AIzaSyDY6ZJXL8FxBWwingKLmFPJdNF4VzD3vg4&scale=1&signature=Lea6lGuirYetpqMAxFnU5vPoPf8=","googleStreetViewImageSignedUrl":"https:\/\/maps.googleapis.com\/maps\/api\/streetview?location=45.595829,-122.751088&size=400x215&key=AIzaSyDY6ZJXL8FxBWwingKLmFPJdNF4VzD3vg4&source=outdoor&signature=Vdw7GcNTLMQme74CDhZdU9b-9zc=","googleStreetViewMetadataSignedUrl":"https:\/\/maps.googleapis.com\/maps\/api\/streetview\/metadata?location=45.595829,-122.751088&key=AIzaSyDY6ZJXL8FxBWwingKLmFPJdNF4VzD3vg4&source=outdoor&signature=OYza-85FSfbmq7cureGHOnGfSWw=","isPremierBuilder":false,"state":"OR","isZillowOwned":false}],"openHouseSchedule":[]},"abTests":{"TR_ORGANIC_HIGHLIGHTS":"ON_AgentPic","HDP_OPEN_HOUSE_SAVE":"CONTROL","SEOTEST__HDP_SIMILAR_HOME":"CONTROL"}},"zpid":53854858}